[{
    "number": 18,
    "name": "18- PREFECTURE",
    "address": "Rue de la République",
    "latitude": 49.890229,
    "longitude": 2.295865
}, {
    "number": 2,
    "name": "02- LES HALLES",
    "address": "Rue J Natiere",
    "latitude": 49.896032388592566,
    "longitude": 2.295043974872919
}, {
    "number": 10,
    "name": "10- PALAIS DE JUSTICE",
    "address": "Place D' Aguesseau",
    "latitude": 49.8933588618336,
    "longitude": 2.301314220716614
}, {
    "number": 4,
    "name": "04- PLACE AU FEURRE",
    "address": "Place au Feurre",
    "latitude": 49.89729029741273,
    "longitude": 2.297864452413288
}, {
    "number": 24,
    "name": "24- COLISEUM",
    "address": "Boulevard Faidherbe",
    "latitude": 49.89413492763881,
    "longitude": 2.287054048660281
}, {
    "number": 25,
    "name": "25- LA HOTOIE",
    "address": "Bd des Fédérés",
    "latitude": 49.896862536806346,
    "longitude": 2.282867747579433
}, {
    "number": 8,
    "name": "08- VANMARCKE",
    "address": "Rue Edouard David",
    "latitude": 49.896851505866685,
    "longitude": 2.301575828797199
}, {
    "number": 9,
    "name": "09- CATHEDRALE",
    "address": "Rue Flatters",
    "latitude": 49.89508211905397,
    "longitude": 2.299395003901743
}, {
    "number": 3,
    "name": "03- VOGEL",
    "address": "Bd du jardin des plantes",
    "latitude": 49.898124385191046,
    "longitude": 2.295195128091815
}, {
    "number": 26,
    "name": "26- MARCHE AUX CHEVAUX",
    "address": "Rue du Marché aux Chevaux",
    "latitude": 49.897251288573926,
    "longitude": 2.289247027835661
}, {
    "number": 16,
    "name": "16- JOFFRE",
    "address": "Place du Maréchal Joffre",
    "latitude": 49.88779293086959,
    "longitude": 2.30361108882717
}, {
    "number": 15,
    "name": "15- JACOBINS",
    "address": "Rue des Jacobins",
    "latitude": 49.8909435451942,
    "longitude": 2.300843419403305
}, {
    "number": 14,
    "name": "14- GARE CINEMA",
    "address": "Passage Alphonse Fiquet",
    "latitude": 49.89028092622952,
    "longitude": 2.307375584272146
}, {
    "number": 19,
    "name": "19- REPUBLIQUE",
    "address": "République Gambetta",
    "latitude": 49.892720073260215,
    "longitude": 2.297075819641891
}, {
    "number": 12,
    "name": "12- AMIENS 2",
    "address": "Bd Alsace Lorraine",
    "latitude": 49.89223828665915,
    "longitude": 2.30769408025555
}, {
    "number": 20,
    "name": "20- BRANLY",
    "address": "Bd Maignan Larivière",
    "latitude": 49.89001551426808,
    "longitude": 2.291227264216073
}, {
    "number": 22,
    "name": "22- QUATRE CHENES",
    "address": "Avenue du Général Foy",
    "latitude": 49.890242,
    "longitude": 2.282163
}, {
    "number": 11,
    "name": "11- PORT D' AMONT",
    "address": "Bd Du Port D' Amont",
    "latitude": 49.89557785209512,
    "longitude": 2.306191079777315
}, {
    "number": 13,
    "name": "13- GARE JULES BARNI",
    "address": "Rue Jules Barni",
    "latitude": 49.889774,
    "longitude": 2.3091
}, {
    "number": 21,
    "name": "21- MAISON DE LA CULTURE",
    "address": "Place Léon Gontier",
    "latitude": 49.89392165574068,
    "longitude": 2.292724729098195
}, {
    "number": 5,
    "name": "05- ST LEU",
    "address": "Rue St Leu",
    "latitude": 49.897919625448225,
    "longitude": 2.300574328135932
}, {
    "number": 6,
    "name": "06- CITADELLE MONTRESCU",
    "address": "Avenu du général du Gaulle",
    "latitude": 49.904325,
    "longitude": 2.30082
}]
